[
    { "id": 1, "lat": 39.55656, "lng": 21.76983, "name": "28ης Οκτωβρίου 41, Τρίκαλα 421 00" },
    { "id": 2, "lat": 39.55021, "lng": 21.76585, "name": "Ασκληπιού 32, Τρίκαλα 421 00" },
    { "id": 3, "lat": 39.55091, "lng": 21.76836, "name": "Φλέμινγκ 21, Τρίκαλα 421 00" },
    { "id": 4, "lat": 39.42803, "lng": 21.67456, "name": "Μιχαήλ Κεντρικά" },
    { "id": 5, "lat": 39.42883, "lng": 21.66495, "name": "Μιχαήλ Μουζάκι" },
    { "id": 6, "lat": 39.3693, "lng": 21.92484, "name": "Ανδρέα Παπανδρέου 61, Καρδίτσα 431 00" },
    { "id": 7, "lat": 39.36676, "lng": 21.92196, "name": "Κολοκοτρώνη 13, Καρδίτσα 431 00" },
    { "id": 8, "lat": 39.74557, "lng": 22.35976, "name": "Good Market, Αμπελώνας 404 00" },
    { "id": 9, "lat": 39.74563, "lng": 22.36648, "name": "Βανίλια, Αγίου Κωνσταντίνου, Ελ. Βενιζέλου 92, Αμπελώνας 404 00" },
    { "id": 10, "lat": 39.50598, "lng": 22.64127, "name": "Το μπακάλικο της Γειτονιάς, Κιλελέρ 415 00" },
    { "id": 11, "lat": 39.39591, "lng": 22.07445, "name": "Μάρκετ Γιαννακός, Ματαράγκα 433 00" },
    { "id": 12, "lat": 39.73895, "lng": 22.29575, "name": "Super Market ΜΠΑΡΑΣ, Grigoriou E 21, Tirnavos 401 00" }
]
  